City_ID,City,Country,Date,Lat,Lng,Max Temp,Humidity,Cloudiness,Wind Speed,Current Description,Rain inches (last 3 hours),Snow inches (last 3 hours)
0,Cape Town,ZA,2019-11-10 06:31:07,-33.93,18.42,66.0,82,79,8.05,broken clouds,0.0,0.0
1,Shimoda,JP,2019-11-10 06:34:44,34.7,138.93,66.2,52,20,5.82,few clouds,0.0,0.0
2,Mahebourg,MU,2019-11-10 06:34:44,-20.41,57.7,80.6,65,75,10.29,broken clouds,0.0,0.0
3,Mataura,NZ,2019-11-10 06:34:45,-46.19,168.86,51.01,78,92,5.01,light rain,0.88,0.0
4,Kirakira,SB,2019-11-10 06:34:45,-10.46,161.92,80.22,68,72,6.02,broken clouds,0.0,0.0
5,Westport,US,2019-11-10 06:30:36,41.14,-73.36,41.0,59,1,6.93,clear sky,0.0,0.0
6,Salihorsk,BY,2019-11-10 06:33:38,52.79,27.54,47.12,96,79,7.27,broken clouds,0.0,0.0
7,East London,ZA,2019-11-10 06:31:01,-33.02,27.91,66.2,88,40,9.17,scattered clouds,0.0,0.0
8,Klaksvik,FO,2019-11-10 06:34:45,62.23,-6.59,37.4,64,87,3.36,overcast clouds,0.0,0.0
9,Olga,US,2019-11-10 06:30:03,34.11,-118.17,71.6,63,1,2.57,clear sky,0.0,0.0
10,Lokoja,NG,2019-11-10 06:34:46,7.8,6.74,75.79,72,100,1.39,overcast clouds,0.0,0.0
11,Ushuaia,AR,2019-11-10 06:34:46,-54.81,-68.31,37.4,86,18,6.93,few clouds,0.0,0.0
12,Puerto Leguizamo,CO,2019-11-10 06:34:46,-0.19,-74.78,72.18,96,98,1.95,overcast clouds,0.0,0.0
13,Hithadhoo,MV,2019-11-10 06:34:46,-0.6,73.08,82.24,74,10,11.01,light rain,0.44,0.0
14,Punta Arenas,CL,2019-11-10 06:34:47,-53.16,-70.91,35.6,69,33,3.36,scattered clouds,0.0,0.0
15,Adrar,DZ,2019-11-10 06:34:47,27.87,-0.29,44.6,42,0,8.05,clear sky,0.0,0.0
16,Rikitea,PF,2019-11-10 06:34:47,-23.12,-134.97,73.85,72,97,13.06,overcast clouds,0.0,0.0
17,New Norfolk,AU,2019-11-10 06:34:47,-42.78,147.06,60.8,44,75,12.75,broken clouds,0.0,0.0
18,Ayan,IR,2019-11-10 06:34:47,38.23,44.7,44.17,18,0,1.19,clear sky,0.0,0.0
19,Lakkion,GR,2019-11-10 06:32:45,37.13,26.85,68.0,82,20,4.7,few clouds,0.0,0.0
20,Novikovo,RU,2019-11-10 06:34:48,51.15,37.89,42.76,93,45,10.74,scattered clouds,0.0,0.0
21,Busselton,AU,2019-11-10 06:34:48,-33.64,115.35,82.0,33,15,12.41,few clouds,0.0,0.0
22,Laguna,BZ,2019-11-10 06:34:48,16.17,-88.94,77.0,94,75,2.73,broken clouds,0.0,0.0
23,Naze,NG,2019-11-10 06:34:48,5.43,7.07,73.4,100,75,11.41,light rain,0.0,0.0
24,Oda,JP,2019-11-10 06:34:48,35.19,132.5,60.8,59,75,13.87,broken clouds,0.0,0.0
25,Arraial Do Cabo,BR,2019-11-10 06:34:49,-22.97,-42.02,73.04,93,100,14.65,overcast clouds,0.0,0.0
26,Bluff,AU,2019-11-10 06:34:49,-23.58,149.07,89.69,9,15,2.98,few clouds,0.0,0.0
27,Lavrentiya,RU,2019-11-10 06:34:49,65.58,-170.99,34.41,96,100,5.61,light rain,0.25,0.0
28,Anton Lizardo,MX,2019-11-10 06:34:50,19.05,-95.98,72.93,87,100,14.38,light rain,0.94,0.0
29,Victoria,BN,2019-11-10 06:31:37,5.28,115.24,87.8,70,75,3.36,broken clouds,0.0,0.0
30,Suining,CN,2019-11-10 06:34:50,30.51,105.57,68.86,55,100,5.61,overcast clouds,0.0,0.0
31,Paso De Carrasco,UY,2019-11-10 06:34:50,-34.86,-56.05,64.0,87,20,8.05,few clouds,0.0,0.0
32,Ponta Do Sol,BR,2019-11-10 06:34:50,-20.63,-46.0,67.28,92,100,2.8,light rain,1.06,0.0
33,Neiafu,TO,2019-11-10 06:34:51,-18.65,-173.98,78.8,78,20,5.82,few clouds,0.0,0.0
34,Ola,RU,2019-11-10 06:34:51,59.58,151.3,18.84,64,98,12.8,overcast clouds,0.0,0.0
35,Castro,CL,2019-11-10 06:34:51,-42.48,-73.76,48.2,100,87,1.12,overcast clouds,0.0,0.0
36,Fukue,JP,2019-11-10 06:34:51,35.03,136.69,63.0,42,75,3.36,broken clouds,0.0,0.0
37,Qaanaaq,GL,2019-11-10 06:34:51,77.48,-69.36,-5.12,39,0,5.61,clear sky,0.0,0.0
38,Coquimbo,CL,2019-11-10 06:34:52,-29.95,-71.34,53.6,93,0,1.12,clear sky,0.0,0.0
39,Sao Gabriel Da Cachoeira,BR,2019-11-10 06:34:52,-0.13,-67.09,73.42,96,50,1.66,scattered clouds,0.0,0.0
40,Hilo,US,2019-11-10 06:34:52,19.71,-155.08,78.8,78,1,3.36,clear sky,0.0,0.0
41,San Patricio,PY,2019-11-10 06:34:52,-26.98,-56.83,71.15,98,100,4.74,overcast clouds,0.0,0.0
42,Shellbrook,CA,2019-11-10 06:34:53,53.22,-106.39,10.4,60,90,11.41,light snow,0.0,0.0
43,Barrow,AR,2019-11-10 06:34:53,-38.31,-60.23,45.64,75,0,7.43,clear sky,0.0,0.0
44,Canavieiras,BR,2019-11-10 06:34:53,-15.68,-38.95,73.15,90,4,5.06,clear sky,0.0,0.0
45,Tuktoyaktuk,CA,2019-11-10 06:34:53,69.44,-133.03,6.8,65,5,14.99,clear sky,0.0,0.0
46,San Quintin,PH,2019-11-10 06:34:53,17.54,120.52,81.09,78,100,3.02,moderate rain,4.31,0.0
47,San Cristobal,HN,2019-11-10 06:34:54,14.68,-86.92,64.35,99,90,3.06,overcast clouds,0.0,0.0
48,Kysyl-Syr,RU,2019-11-10 06:34:54,63.9,122.77,0.12,95,100,5.3,light snow,0.0,0.69
49,Butaritari,KI,2019-11-10 06:34:54,3.07,172.79,85.32,60,86,1.36,overcast clouds,0.0,0.0
50,Talnakh,RU,2019-11-10 06:34:54,69.49,88.39,-16.61,75,40,4.47,scattered clouds,0.0,0.0
51,Roi Et,TH,2019-11-10 06:34:54,16.06,103.65,84.2,37,12,11.41,few clouds,0.0,0.0
52,Port Alfred,ZA,2019-11-10 06:34:54,-33.59,26.89,64.99,94,100,5.99,overcast clouds,0.0,0.0
53,Atuona,PF,2019-11-10 06:34:55,-9.8,-139.03,79.79,80,2,14.25,light rain,0.25,0.0
54,Provideniya,RU,2019-11-10 06:34:55,64.42,-173.23,33.96,98,100,4.21,light rain,0.19,0.0
55,Kapaa,US,2019-11-10 06:34:55,22.08,-159.32,75.2,83,90,5.82,overcast clouds,0.0,0.0
56,Millbrook,US,2019-11-10 06:31:56,32.48,-86.36,44.6,93,90,0.87,fog,0.0,0.0
57,Deniliquin,AU,2019-11-10 06:34:56,-35.53,144.96,73.0,39,12,8.99,few clouds,0.0,0.0
58,Te Anau,NZ,2019-11-10 06:34:56,-45.41,167.72,45.88,80,69,9.4,light rain,0.75,0.0
59,Cap-Chat,CA,2019-11-10 06:34:56,49.1,-66.68,23.16,71,100,10.36,light snow,0.0,0.25
60,Torbay,CA,2019-11-10 06:34:57,47.66,-52.73,32.0,58,20,6.93,few clouds,0.0,0.0
61,Upernavik,GL,2019-11-10 06:34:57,72.79,-56.15,16.0,67,75,2.8,broken clouds,0.0,0.0
62,Mnogovershinnyy,RU,2019-11-10 06:34:57,53.94,139.92,16.0,77,0,4.97,clear sky,0.0,0.0
63,Hobart,AU,2019-11-10 06:34:57,-42.88,147.33,60.8,44,75,12.75,broken clouds,0.0,0.0
64,Yellowknife,CA,2019-11-10 06:34:57,62.45,-114.38,5.0,77,75,9.17,light snow,0.0,0.0
65,Ribeira Grande,PT,2019-11-10 06:34:58,38.52,-28.7,62.78,84,51,5.91,broken clouds,0.0,0.0
66,Tautira,PF,2019-11-10 06:34:58,-17.73,-149.15,78.8,78,90,3.36,overcast clouds,0.0,0.0
67,Albany,US,2019-11-10 06:34:58,42.65,-73.75,35.6,37,90,10.29,overcast clouds,0.0,0.0
68,Storslett,NO,2019-11-10 06:34:58,69.77,21.03,28.35,50,0,7.67,clear sky,0.0,0.0
69,Tecoanapa,MX,2019-11-10 06:34:58,16.99,-99.26,80.6,94,5,5.82,clear sky,0.0,0.0
70,Luderitz,NA,2019-11-10 06:34:59,-26.65,15.16,64.4,72,20,5.82,few clouds,0.0,0.0
71,Katsuura,JP,2019-11-10 06:34:59,33.93,134.5,60.8,51,75,8.05,broken clouds,0.0,0.0
72,Avarua,CK,2019-11-10 06:34:59,-21.21,-159.78,73.4,83,0,5.82,light rain,0.12,0.0
73,Nome,US,2019-11-10 06:34:59,30.04,-94.42,48.2,93,1,1.81,clear sky,0.0,0.0
74,Pimentel,BR,2019-11-10 06:34:59,-3.7,-45.5,73.69,91,13,3.67,few clouds,0.0,0.0
75,Sovetskiy,RU,2019-11-10 06:35:00,56.76,48.47,28.17,77,82,12.12,broken clouds,0.0,0.0
76,Camacha,PT,2019-11-10 06:35:00,33.08,-16.33,66.2,88,40,17.22,scattered clouds,0.0,0.0
77,Rockport,US,2019-11-10 06:34:01,28.02,-97.05,60.01,76,1,5.91,clear sky,0.0,0.0
78,Souillac,FR,2019-11-10 06:35:00,45.6,-0.6,45.0,87,37,4.7,light rain,0.31,0.0
79,Saskylakh,RU,2019-11-10 06:35:01,71.97,114.09,-3.28,99,94,0.69,overcast clouds,0.0,0.0
80,Biloela,AU,2019-11-10 06:35:01,-24.4,150.51,85.86,13,0,14.05,clear sky,0.0,0.0
81,Carnarvon,ZA,2019-11-10 06:35:01,-30.97,22.13,69.19,31,99,9.44,overcast clouds,0.0,0.0
82,Sur,OM,2019-11-10 06:35:01,22.57,59.53,79.2,46,79,5.26,broken clouds,0.0,0.0
83,Saint-Philippe,CA,2019-11-10 06:35:01,45.36,-73.48,37.0,55,90,14.99,overcast clouds,0.0,0.0
84,Rondonopolis,BR,2019-11-10 06:35:02,-16.46,-54.64,72.27,90,80,3.42,light rain,1.31,0.0
85,Matara,BI,2019-11-10 06:35:02,-3.48,29.48,73.4,88,75,2.24,broken clouds,0.0,0.0
86,Lalmohan,BD,2019-11-10 06:35:02,22.34,90.74,77.36,87,100,34.47,heavy intensity rain,20.69,0.0
87,Scituate,US,2019-11-10 06:35:02,41.79,-71.61,33.01,86,1,3.36,clear sky,0.0,0.0
88,Namibe,AO,2019-11-10 06:35:03,-15.19,12.15,77.07,77,26,4.05,scattered clouds,0.0,0.0
89,Port Augusta,AU,2019-11-10 06:35:03,-32.49,137.76,82.0,23,0,14.99,clear sky,0.0,0.0
90,Dingle,PH,2019-11-10 06:35:03,11.0,122.67,85.73,66,32,3.6,moderate rain,5.5,0.0
91,Roma,IT,2019-11-10 06:35:03,41.89,12.48,51.01,93,29,3.36,scattered clouds,0.0,0.0
92,Cherskiy,RU,2019-11-10 06:35:03,68.75,161.3,-1.99,93,7,1.59,clear sky,0.0,0.0
93,Kodiak,US,2019-11-10 06:35:04,39.95,-94.76,54.0,70,1,5.82,clear sky,0.0,0.0
94,Kruisfontein,ZA,2019-11-10 06:35:04,-34.0,24.73,62.24,86,97,15.84,light rain,0.19,0.0
95,Aquiraz,BR,2019-11-10 06:35:04,-3.9,-38.39,86.0,69,40,16.11,scattered clouds,0.0,0.0
96,Mayo,CA,2019-11-10 06:35:04,63.59,-135.9,-20.21,82,5,2.24,clear sky,0.0,0.0
97,Tefe,BR,2019-11-10 06:35:04,-3.35,-64.71,75.6,84,60,0.45,broken clouds,0.0,0.0
98,Opuwo,NA,2019-11-10 06:35:05,-18.06,13.84,72.16,25,100,10.04,overcast clouds,0.0,0.0
99,Vila Velha,BR,2019-11-10 06:35:05,-3.71,-38.6,86.0,69,40,16.11,scattered clouds,0.0,0.0
100,Nara,JP,2019-11-10 06:35:05,34.68,135.8,68.0,42,75,1.12,broken clouds,0.0,0.0
101,Rapar,IN,2019-11-10 06:35:05,23.57,70.65,84.27,40,0,13.35,clear sky,0.0,0.0
102,Ahipara,NZ,2019-11-10 06:35:06,-35.17,173.16,60.01,100,87,21.59,light rain,0.13,0.0
103,Bethel,US,2019-11-10 06:35:06,60.79,-161.76,26.6,85,90,13.87,overcast clouds,0.0,0.0
104,Saint-Augustin,CA,2019-11-10 06:35:06,45.63,-73.98,37.0,59,90,11.41,overcast clouds,0.0,0.0
105,Luwingu,ZM,2019-11-10 06:35:06,-10.26,29.92,79.27,43,83,9.84,broken clouds,0.0,0.0
106,Sabang,PH,2019-11-10 06:35:06,13.8,121.11,84.99,80,85,1.99,light rain,1.06,0.0
107,Guerrero Negro,MX,2019-11-10 06:35:07,27.97,-114.04,69.4,68,99,11.41,overcast clouds,0.0,0.0
108,Alofi,NU,2019-11-10 06:35:07,-19.06,-169.92,78.8,74,2,10.29,clear sky,0.0,0.0
109,Hermanus,ZA,2019-11-10 06:35:07,-34.42,19.24,66.99,77,78,15.99,broken clouds,0.0,0.0
110,Vaini,IN,2019-11-10 06:35:07,15.34,74.49,84.2,51,20,10.29,few clouds,0.0,0.0
111,Hami,CN,2019-11-10 06:35:07,42.84,93.51,48.67,18,0,3.0,clear sky,0.0,0.0
112,Komsomolskiy,RU,2019-11-10 06:35:08,67.55,63.78,-6.07,100,51,4.7,broken clouds,0.0,0.0
113,Freeport,BS,2019-11-10 06:31:21,26.54,-78.7,73.76,71,0,16.69,clear sky,0.0,0.0
114,Kutum,SD,2019-11-10 06:35:08,14.2,24.66,70.12,20,84,6.35,broken clouds,0.0,0.0
115,Dikson,RU,2019-11-10 06:35:08,73.51,80.55,21.69,94,100,18.86,light snow,0.0,0.75
116,Clyde River,CA,2019-11-10 06:35:09,70.47,-68.59,15.8,92,90,35.57,light snow,0.0,0.0
117,Klyuchi,RU,2019-11-10 06:35:09,52.25,79.17,27.12,49,100,14.0,overcast clouds,0.0,0.0
118,Barrhead,CA,2019-11-10 06:32:55,54.12,-114.4,8.6,92,90,6.93,light snow,0.0,0.0
119,Bafoulabe,ML,2019-11-10 06:35:09,13.81,-10.83,80.58,30,68,2.24,broken clouds,0.0,0.0
120,Mar Del Plata,AR,2019-11-10 06:32:50,-46.43,-67.52,47.73,71,99,16.44,overcast clouds,0.0,0.0
121,Jamestown,AU,2019-11-10 06:35:10,-33.21,138.6,75.81,13,0,9.84,clear sky,0.0,0.0
122,Moree,AU,2019-11-10 06:35:10,-29.46,149.84,82.4,13,0,20.8,clear sky,0.0,0.0
123,Saint George,GR,2019-11-10 06:35:10,39.45,22.34,55.4,100,75,1.45,light rain,0.0,0.0
124,Dubrovytsya,UA,2019-11-10 06:35:10,51.57,26.57,48.33,94,61,7.0,broken clouds,0.0,0.0
125,Salalah,OM,2019-11-10 06:35:11,17.01,54.1,82.4,58,20,9.17,few clouds,0.0,0.0
126,Bredasdorp,ZA,2019-11-10 06:35:11,-34.53,20.04,66.99,77,97,18.34,overcast clouds,0.0,0.0
127,Pavlogradka,RU,2019-11-10 06:35:11,54.2,73.56,19.63,58,0,7.38,clear sky,0.0,0.0
128,Toora-Khem,RU,2019-11-10 06:35:11,52.47,96.11,17.1,56,100,3.31,overcast clouds,0.0,0.0
129,Portland,US,2019-11-10 06:31:12,43.66,-70.25,37.0,59,1,8.05,clear sky,0.0,0.0
130,Bystrzyca Klodzka,PL,2019-11-10 06:35:12,50.3,16.64,37.0,92,14,1.45,few clouds,0.0,0.0
131,Puerto Ayora,EC,2019-11-10 06:35:12,-0.74,-90.35,69.01,89,16,5.01,few clouds,0.0,0.0
132,Lebu,ET,2019-11-10 06:35:12,8.96,38.73,64.4,45,4,4.7,clear sky,0.0,0.0
133,Weyburn,CA,2019-11-10 06:35:12,49.67,-103.85,12.99,75,99,11.01,overcast clouds,0.0,0.06
134,Safford,US,2019-11-10 06:35:13,32.83,-109.71,62.6,51,1,6.93,clear sky,0.0,0.0
135,Mukhen,RU,2019-11-10 06:35:13,48.19,136.14,33.58,47,0,6.44,clear sky,0.0,0.0
136,Larsnes,NO,2019-11-10 06:35:13,62.2,5.58,34.0,68,0,16.11,clear sky,0.0,0.0
137,Kocevje,SI,2019-11-10 06:35:13,45.64,14.86,50.0,87,90,3.36,overcast clouds,0.0,0.0
138,Calama,CL,2019-11-10 06:35:13,-22.46,-68.93,48.2,18,32,20.8,scattered clouds,0.0,0.0
139,Arona,IT,2019-11-10 06:35:14,45.76,8.56,45.0,93,75,3.36,broken clouds,0.0,0.0
140,Hun,BE,2019-11-10 06:35:14,50.34,4.87,35.6,93,85,6.93,overcast clouds,0.0,0.0
141,Yerofey Pavlovich,RU,2019-11-10 06:35:14,53.97,121.97,14.45,92,100,5.77,light snow,0.0,1.19
142,Thompson,CA,2019-11-10 06:33:57,55.74,-97.86,-5.81,76,75,10.29,broken clouds,0.0,0.0
143,Sesvete,HR,2019-11-10 06:35:15,45.83,16.11,45.0,87,90,4.7,light rain,0.0,0.0
144,Sao Filipe,CV,2019-11-10 06:35:15,14.9,-24.5,74.25,82,92,15.68,overcast clouds,0.0,0.0
145,Saint-Denis,FR,2019-11-10 06:35:15,48.94,2.36,43.0,87,90,6.93,light intensity drizzle rain,0.0,0.0
146,Touros,BR,2019-11-10 06:35:15,-5.2,-35.46,75.2,88,40,4.7,scattered clouds,0.0,0.0
147,Boffa,GN,2019-11-10 06:35:16,10.18,-14.04,77.41,90,16,4.68,light rain,0.75,0.0
148,El Alto,BO,2019-11-10 06:35:16,-16.5,-68.19,42.8,87,75,8.05,broken clouds,0.0,0.0
149,Lambarene,GA,2019-11-10 06:35:16,-0.7,10.22,75.88,95,100,0.76,overcast clouds,0.0,0.0
150,Strathpeffer,GB,2019-11-10 06:35:16,57.59,-4.54,33.01,100,20,4.7,few clouds,0.0,0.0
151,Winnemucca,US,2019-11-10 06:35:16,40.97,-117.74,39.0,36,1,4.7,clear sky,0.0,0.0
152,Inirida,CO,2019-11-10 06:35:17,3.87,-67.92,73.17,93,42,1.81,scattered clouds,0.0,0.0
153,Pemba,MZ,2019-11-10 06:35:17,-12.97,40.52,80.6,94,75,3.36,broken clouds,0.0,0.0
154,Okha,RU,2019-11-10 06:35:17,53.59,142.95,24.58,73,100,16.22,light snow,0.0,0.13
155,Yining,CN,2019-11-10 06:35:17,29.04,114.56,72.84,34,90,6.78,overcast clouds,0.0,0.0
156,Bekhtery,UA,2019-11-10 06:35:17,46.25,32.3,51.01,100,90,15.66,mist,0.0,0.0
157,Kamaishi,JP,2019-11-10 06:35:17,39.28,141.86,50.0,53,40,8.05,scattered clouds,0.0,0.0
158,Hambantota,LK,2019-11-10 06:35:18,6.12,81.12,82.4,94,75,3.36,broken clouds,0.0,0.0
159,Kavaratti,IN,2019-11-10 06:35:18,10.57,72.64,86.0,70,20,6.93,few clouds,0.0,0.0
160,Kaitangata,NZ,2019-11-10 06:35:18,-46.28,169.85,50.0,74,80,7.0,broken clouds,0.0,0.0
161,Manitouwadge,CA,2019-11-10 06:35:18,49.12,-85.84,20.5,86,100,4.45,light snow,0.0,0.19
162,Constitucion,MX,2019-11-10 06:35:19,23.99,-104.67,59.65,77,91,3.22,light rain,0.13,0.0
163,Deputatskiy,RU,2019-11-10 06:35:19,69.3,139.9,-14.97,100,99,1.74,overcast clouds,0.0,0.0
164,Nikolskoye,RU,2019-11-10 06:35:19,59.7,30.79,44.6,93,75,11.18,light rain,0.0,0.0
165,Ocotal,NI,2019-11-10 06:35:19,13.63,-86.48,65.08,98,87,2.86,overcast clouds,0.0,0.0
166,Lagoa,PT,2019-11-10 06:35:20,37.14,-8.45,57.2,71,100,10.29,overcast clouds,0.0,0.0
167,Togitsu,JP,2019-11-10 06:35:20,32.83,129.83,68.0,52,75,4.7,broken clouds,0.0,0.0
168,Padang,ID,2019-11-10 06:35:20,-0.92,100.36,74.8,89,78,3.96,light rain,2.0,0.0
169,Clovis,US,2019-11-10 06:35:21,36.83,-119.7,60.01,66,1,4.79,clear sky,0.0,0.0
170,Margate,AU,2019-11-10 06:31:05,-43.03,147.26,60.8,44,75,12.75,broken clouds,0.0,0.0
171,Folldal,NO,2019-11-10 06:35:21,62.14,10.0,7.27,97,99,1.01,light snow,0.0,0.19
172,Emba,CY,2019-11-10 06:35:21,34.81,32.42,73.4,33,0,4.7,clear sky,0.0,0.0
173,Erdenet,MN,2019-11-10 06:35:22,49.03,104.04,31.1,27,58,13.33,broken clouds,0.0,0.0
174,Aksarka,RU,2019-11-10 06:35:22,66.56,67.8,-4.08,98,72,3.67,broken clouds,0.0,0.0
175,Lakselv,NO,2019-11-10 06:35:22,70.05,24.96,-0.41,84,0,6.93,clear sky,0.0,0.0
176,Port Hawkesbury,CA,2019-11-10 06:35:22,45.62,-61.36,34.0,85,1,3.36,clear sky,0.0,0.0
177,Cam Ranh,VN,2019-11-10 06:35:23,11.92,109.15,73.4,94,90,8.05,moderate rain,0.0,0.0
178,Khangah Dogran,PK,2019-11-10 06:35:23,31.83,73.62,77.47,22,0,3.22,clear sky,0.0,0.0
179,Chai Badan,TH,2019-11-10 06:35:23,15.2,101.13,82.42,59,29,9.37,scattered clouds,0.0,0.0
180,Qasigiannguit,GL,2019-11-10 06:35:23,68.82,-51.19,37.4,32,80,20.8,broken clouds,0.0,0.0
181,Saldanha,PT,2019-11-10 06:35:24,41.42,-6.55,40.68,85,100,11.18,overcast clouds,0.0,0.0
182,Norman Wells,CA,2019-11-10 06:35:24,65.28,-126.83,-5.81,76,5,4.7,clear sky,0.0,0.0
183,Trelew,AR,2019-11-10 06:35:11,-43.25,-65.31,44.42,82,68,9.31,broken clouds,0.0,0.0
184,Khatanga,RU,2019-11-10 06:35:24,71.98,102.47,-1.36,96,100,15.84,light snow,0.0,0.63
185,Waddan,LY,2019-11-10 06:35:24,29.16,16.14,63.14,73,100,9.69,overcast clouds,0.0,0.0
186,Geraldton,CA,2019-11-10 06:35:24,49.72,-86.95,14.0,85,90,3.36,light snow,0.0,0.0
187,Davila,PH,2019-11-10 06:35:25,18.47,120.58,82.4,78,90,10.29,overcast clouds,0.0,0.0
188,Chuy,UY,2019-11-10 06:35:25,-33.69,-53.46,61.0,85,23,8.59,few clouds,0.0,0.0
189,Mahajanga,MG,2019-11-10 06:35:25,-15.72,46.32,84.2,74,40,4.7,scattered clouds,0.0,0.0
190,Alyangula,AU,2019-11-10 06:35:25,-13.85,136.42,95.0,23,19,12.75,few clouds,0.0,0.0
191,Pevek,RU,2019-11-10 06:35:25,69.7,170.27,6.44,67,0,2.68,clear sky,0.0,0.0
192,Hanyang,CN,2019-11-10 06:35:26,32.14,105.51,68.0,50,30,4.41,scattered clouds,0.0,0.0
193,Matola,MZ,2019-11-10 06:35:26,-25.97,32.47,73.0,78,75,3.36,broken clouds,0.0,0.0
194,Barentu,ER,2019-11-10 06:35:27,15.11,37.59,81.82,39,0,2.66,clear sky,0.0,0.0
195,Nishihara,JP,2019-11-10 06:35:27,35.74,139.53,68.0,45,20,2.24,few clouds,0.0,0.0
196,Palmer,AU,2019-11-10 06:35:27,-34.85,139.16,75.99,40,0,8.05,clear sky,0.0,0.0
197,Goderich,CA,2019-11-10 06:35:27,43.74,-81.71,42.01,80,83,11.99,broken clouds,0.0,0.0
198,Faya,SA,2019-11-10 06:35:27,18.39,42.45,62.6,58,0,4.7,clear sky,0.0,0.0
199,Yandyki,RU,2019-11-10 06:35:27,45.77,47.13,55.62,60,91,13.82,overcast clouds,0.0,0.0
200,Leninsk-Kuznetskiy,RU,2019-11-10 06:35:28,54.66,86.17,8.6,78,24,6.71,few clouds,0.0,0.0
201,Port Elizabeth,US,2019-11-10 06:35:28,39.31,-74.98,37.0,85,1,4.63,clear sky,0.0,0.0
202,Piacabucu,BR,2019-11-10 06:35:33,-10.41,-36.43,76.64,79,78,9.62,light rain,0.13,0.0
203,Cabo San Lucas,MX,2019-11-10 06:31:02,22.89,-109.91,80.01,60,20,5.82,few clouds,0.0,0.0
204,Tiksi,RU,2019-11-10 06:35:33,71.64,128.87,-16.69,99,79,3.04,broken clouds,0.0,0.0
205,Husavik,CA,2019-11-10 06:35:34,50.56,-96.99,12.0,80,61,5.99,broken clouds,0.0,0.0
206,Sala Consilina,IT,2019-11-10 06:35:34,40.4,15.6,45.03,94,72,5.01,light rain,0.44,0.0
207,Leh,IN,2019-11-10 06:35:34,34.16,77.58,21.92,19,0,1.9,clear sky,0.0,0.0
208,Airai,TL,2019-11-10 06:35:34,-8.93,125.41,84.22,39,80,8.93,broken clouds,0.0,0.0
209,Anadyr,RU,2019-11-10 06:35:34,64.73,177.51,28.4,92,90,4.47,light snow,0.0,0.0
210,Makakilo City,US,2019-11-10 06:35:35,21.35,-158.09,78.8,83,1,1.23,clear sky,0.0,0.0
211,Atherton,AU,2019-11-10 06:33:27,-17.27,145.48,88.0,51,0,12.75,clear sky,0.0,0.0
212,Gilbues,BR,2019-11-10 06:35:35,-9.83,-45.34,74.01,75,84,0.63,broken clouds,0.0,0.0
213,Lorengau,PG,2019-11-10 06:35:35,-2.02,147.27,81.01,81,100,18.81,moderate rain,5.94,0.0
214,Flin Flon,CA,2019-11-10 06:35:36,54.77,-101.88,3.18,82,5,7.36,clear sky,0.0,0.0
215,Hobyo,SO,2019-11-10 06:35:36,5.35,48.53,83.03,60,8,13.71,clear sky,0.0,0.0
216,Charters Towers,AU,2019-11-10 06:35:36,-20.07,146.27,94.19,16,16,15.93,few clouds,0.0,0.0
217,Cidreira,BR,2019-11-10 06:35:36,-30.17,-50.22,70.45,91,99,17.72,light rain,2.5,0.0
218,Nhulunbuy,AU,2019-11-10 06:35:37,-12.18,136.78,89.6,46,27,13.87,scattered clouds,0.0,0.0
219,Port-Gentil,GA,2019-11-10 06:35:37,-0.72,8.78,77.0,94,75,3.36,broken clouds,0.0,0.0
220,Pitimbu,BR,2019-11-10 06:35:37,-7.47,-34.81,75.2,88,20,5.82,few clouds,0.0,0.0
221,Mount Isa,AU,2019-11-10 06:35:37,-20.73,139.49,93.2,7,67,8.05,broken clouds,0.0,0.0
222,Shingu,JP,2019-11-10 06:35:37,33.72,135.99,66.2,52,75,9.17,broken clouds,0.0,0.0
223,Codrington,AU,2019-11-10 06:35:38,-28.95,153.24,75.2,33,90,11.41,overcast clouds,0.0,0.0
224,Jiaocheng,CN,2019-11-10 06:35:38,24.68,116.14,80.94,26,28,4.18,scattered clouds,0.0,0.0
225,Xuanwu,CN,2019-11-10 06:35:38,32.07,118.81,75.0,25,0,13.42,clear sky,0.0,0.0
226,San Andres,PH,2019-11-10 06:35:38,13.32,122.68,81.84,84,73,5.97,moderate rain,7.38,0.0
227,Shuiji,CN,2019-11-10 06:35:38,27.42,118.34,71.56,34,47,2.59,scattered clouds,0.0,0.0
228,Kamyshevatskaya,RU,2019-11-10 06:35:39,46.41,37.96,50.05,85,0,12.57,clear sky,0.0,0.0
229,Barra Do Garcas,BR,2019-11-10 06:35:39,-15.89,-52.26,71.22,90,39,2.15,scattered clouds,0.0,0.0
230,Vostok,RU,2019-11-10 06:35:40,46.45,135.83,30.9,57,20,4.21,few clouds,0.0,0.0
231,Dumas,IN,2019-11-10 06:35:40,21.09,72.71,89.6,66,40,3.36,haze,0.0,0.0
232,Puerto Del Rosario,ES,2019-11-10 06:35:40,28.5,-13.86,66.2,72,40,26.4,scattered clouds,0.0,0.0
233,Inhambane,MZ,2019-11-10 06:35:40,-23.87,35.38,80.6,65,40,9.93,scattered clouds,0.0,0.0
234,Flinders,AU,2019-11-10 06:35:40,-34.58,150.85,71.6,37,40,10.29,scattered clouds,0.0,0.0
235,Vestmanna,FO,2019-11-10 06:35:41,62.16,-7.17,37.4,64,59,3.36,broken clouds,0.0,0.0
236,Kultayevo,RU,2019-11-10 06:35:41,57.89,55.94,24.8,85,90,6.71,overcast clouds,0.0,0.0
237,Aklavik,CA,2019-11-10 06:35:41,68.22,-135.01,10.4,46,5,2.24,clear sky,0.0,0.0
238,Atar,MR,2019-11-10 06:35:41,20.52,-13.05,71.38,21,100,8.97,overcast clouds,0.0,0.0
239,Kapit,MY,2019-11-10 06:35:41,2.02,112.94,90.05,53,73,2.37,broken clouds,0.0,0.0
240,Terrace,CA,2019-11-10 06:32:28,54.52,-128.61,41.0,86,75,14.99,light rain,0.0,0.0
241,Bonavista,CA,2019-11-10 06:35:42,48.65,-53.11,32.0,69,37,10.0,scattered clouds,0.0,0.0
242,Steamboat Springs,US,2019-11-10 06:33:24,40.48,-106.83,37.99,34,1,5.82,clear sky,0.0,0.0
243,Jaisalmer,IN,2019-11-10 06:35:42,26.91,70.91,79.05,18,0,7.74,clear sky,0.0,0.0
244,Hauterive,CA,2019-11-10 06:35:42,49.18,-68.27,32.0,70,90,21.92,overcast clouds,0.0,0.0
245,Karratha,AU,2019-11-10 06:35:43,-20.74,116.85,84.27,53,60,11.5,broken clouds,0.0,0.0
246,Isagarh,IN,2019-11-10 06:35:43,24.84,77.89,79.32,36,0,8.19,clear sky,0.0,0.0
247,Inongo,CD,2019-11-10 06:35:43,-1.93,18.29,75.07,90,100,1.83,overcast clouds,0.0,0.0
248,Atambua,ID,2019-11-10 06:35:43,-9.11,124.89,83.7,62,9,7.52,clear sky,0.0,0.0
249,Hirara,JP,2019-11-10 06:35:43,24.8,125.28,75.2,50,40,6.93,scattered clouds,0.0,0.0
250,Baracoa,CU,2019-11-10 06:35:44,20.35,-74.5,80.24,78,46,6.67,moderate rain,3.62,0.0
251,Tromso,NO,2019-11-10 06:35:44,69.65,18.96,15.8,92,20,3.36,few clouds,0.0,0.0
252,Georgetown,GY,2019-11-10 06:33:58,6.8,-58.16,75.2,100,20,4.7,few clouds,0.0,0.0
253,Teya,MX,2019-11-10 06:35:44,21.05,-89.07,79.0,88,5,6.93,clear sky,0.0,0.0
254,Vao,EE,2019-11-10 06:35:44,59.1,26.19,46.9,95,100,9.55,overcast clouds,0.0,0.0
255,Suoyarvi,RU,2019-11-10 06:35:45,62.08,32.35,33.93,98,100,5.1,light rain,0.56,0.0
256,Narsaq,GL,2019-11-10 06:35:45,60.91,-46.05,41.0,56,33,34.45,light rain,0.38,0.0
257,Centralia,US,2019-11-10 06:35:45,46.72,-122.96,51.01,100,90,4.7,mist,0.0,0.0
258,Luena,AO,2019-11-10 06:35:45,-11.78,19.91,68.0,94,75,6.93,broken clouds,0.0,0.0
259,Nanortalik,GL,2019-11-10 06:35:45,60.14,-45.24,34.54,82,83,6.96,light snow,0.0,0.56
260,Nayoro,JP,2019-11-10 06:35:46,44.36,142.46,31.96,86,96,9.57,light snow,0.0,0.19
261,Ambon,FR,2019-11-10 06:35:46,47.55,-2.56,48.99,93,14,9.17,light rain,0.19,0.0
262,Isangel,VU,2019-11-10 06:35:46,-19.55,169.27,82.4,61,75,9.17,broken clouds,0.0,0.0
263,Svetlogorsk,RU,2019-11-10 06:35:46,53.14,59.15,10.4,85,90,2.24,overcast clouds,0.0,0.0
264,Hasaki,JP,2019-11-10 06:35:47,35.73,140.83,70.0,59,20,8.05,few clouds,0.0,0.0
265,Dalvik,SE,2019-11-10 06:35:47,57.79,14.13,34.0,92,100,10.29,overcast clouds,0.0,0.0
266,Eureka,US,2019-11-10 06:32:24,40.8,-124.16,51.01,93,75,0.96,mist,0.0,0.0
267,Jamame,SO,2019-11-10 06:35:47,0.07,42.75,82.35,75,0,7.27,light rain,0.44,0.0
268,Artsyz,UA,2019-11-10 06:35:47,46.0,29.43,58.44,87,48,8.55,scattered clouds,0.0,0.0
269,Nampula,MZ,2019-11-10 06:35:48,-15.12,39.26,78.8,69,75,4.7,broken clouds,0.0,0.0
270,North Bend,US,2019-11-10 06:35:48,43.41,-124.22,54.0,87,1,8.05,clear sky,0.0,0.0
271,Umm Lajj,SA,2019-11-10 06:35:48,25.02,37.27,82.4,37,19,1.28,few clouds,0.0,0.0
272,Kehychivka,UA,2019-11-10 06:35:48,49.29,35.77,46.83,92,27,10.54,scattered clouds,0.0,0.0
273,Leshukonskoye,RU,2019-11-10 06:35:48,64.9,45.76,19.02,93,100,6.73,light snow,0.0,0.87
274,Lascahobas,HT,2019-11-10 06:35:49,18.83,-71.94,77.0,94,18,2.24,few clouds,0.0,0.0
275,Arman,RU,2019-11-10 06:35:49,59.7,150.17,20.16,85,100,17.11,light snow,0.0,0.37
276,Jiuquan,CN,2019-11-10 06:35:49,39.73,98.49,43.02,21,0,3.56,clear sky,0.0,0.0
277,Aykhal,RU,2019-11-10 06:35:49,65.95,111.51,-16.61,75,90,4.47,overcast clouds,0.0,0.0
278,Ayagoz,KZ,2019-11-10 06:35:50,47.96,80.43,37.72,67,100,7.2,overcast clouds,0.0,0.0
279,Yar-Sale,RU,2019-11-10 06:35:50,66.83,70.83,-6.96,98,0,4.68,clear sky,0.0,0.0
280,Caravelas,BR,2019-11-10 06:35:50,-17.73,-39.27,68.18,95,3,4.7,clear sky,0.0,0.0
281,Sassandra,CI,2019-11-10 06:35:50,4.95,-6.09,74.41,94,2,5.06,light rain,0.88,0.0
282,Mangrol,IN,2019-11-10 06:35:50,25.33,76.51,82.92,33,0,6.22,clear sky,0.0,0.0
283,Saint-Pierre,FR,2019-11-10 06:35:51,48.95,4.24,41.0,93,90,13.87,overcast clouds,0.0,0.0
284,Kargasok,RU,2019-11-10 06:35:51,59.06,80.87,12.09,88,100,6.8,overcast clouds,0.0,0.0
285,Shubarshi,KZ,2019-11-10 06:35:51,48.59,57.19,30.56,78,100,10.83,overcast clouds,0.0,0.0
286,Mayumba,GA,2019-11-10 06:35:51,-3.44,10.65,80.85,86,90,14.18,light rain,2.81,0.0
287,Acapulco,MX,2019-11-10 06:35:52,16.86,-99.88,80.6,94,5,5.82,clear sky,0.0,0.0
288,Nemuro,JP,2019-11-10 06:35:52,43.32,145.57,41.0,48,40,6.93,scattered clouds,0.0,0.0
289,Hervey Bay,AU,2019-11-10 06:35:52,-25.3,152.85,82.4,24,0,16.11,clear sky,0.0,0.0
290,Hualmay,PE,2019-11-10 06:35:52,-11.1,-77.61,60.84,87,73,2.84,broken clouds,0.0,0.0
291,Labytnangi,RU,2019-11-10 06:35:52,66.66,66.39,-3.05,89,45,3.24,scattered clouds,0.0,0.0
292,Manggar,ID,2019-11-10 06:35:53,-2.88,108.27,84.83,64,0,7.9,clear sky,0.0,0.0
293,Chokurdakh,RU,2019-11-10 06:35:53,70.62,147.9,-2.87,96,71,5.46,broken clouds,0.0,0.0
294,Ambulu,ID,2019-11-10 06:35:53,-8.35,113.61,80.8,79,0,10.78,clear sky,0.0,0.0
295,Kuvandyk,RU,2019-11-10 06:35:54,51.48,57.35,28.54,47,95,4.54,overcast clouds,0.0,0.0
296,Longyearbyen,NO,2019-11-10 06:35:54,78.22,15.63,21.2,73,75,4.7,broken clouds,0.0,0.0
297,Esil,KZ,2019-11-10 06:35:54,51.96,66.41,13.64,83,0,4.81,clear sky,0.0,0.0
298,Hereford,GB,2019-11-10 06:32:39,52.06,-2.72,43.0,91,99,1.01,light rain,1.13,0.0
299,Tingo Maria,PE,2019-11-10 06:35:55,-9.29,-76.01,58.96,95,88,3.38,light rain,0.88,0.0
300,Port Lincoln,AU,2019-11-10 06:35:55,-34.72,135.86,63.84,59,0,10.49,clear sky,0.0,0.0
301,Dunedin,NZ,2019-11-10 06:35:55,-45.87,170.5,51.01,84,97,10.0,overcast clouds,0.0,0.0
302,Iqaluit,CA,2019-11-10 06:35:11,63.75,-68.52,6.8,84,75,16.11,broken clouds,0.0,0.0
303,Fez,MA,2019-11-10 06:35:55,34.03,-5.02,48.2,70,44,6.93,scattered clouds,0.0,0.0
304,Bosaso,SO,2019-11-10 06:35:55,11.28,49.18,82.4,51,0,12.75,clear sky,0.0,0.0
305,Nova Zagora,BG,2019-11-10 06:35:56,42.49,26.01,62.01,100,75,5.35,mist,0.0,0.0
306,Vengerovo,RU,2019-11-10 06:35:56,55.68,76.74,16.79,49,40,4.45,scattered clouds,0.0,0.0
307,Chiungutwa,TZ,2019-11-10 06:35:56,-10.88,38.98,87.69,48,77,4.32,broken clouds,0.0,0.0
308,Santa Rosa,AR,2019-11-10 06:35:56,-36.62,-64.29,57.83,63,50,7.67,scattered clouds,0.0,0.0
309,Pacific Grove,US,2019-11-10 06:35:57,36.62,-121.92,54.0,87,90,6.93,overcast clouds,0.0,0.0
310,Vallenar,CL,2019-11-10 06:35:57,-28.58,-70.76,52.68,85,3,2.17,clear sky,0.0,0.0
311,Olinda,AU,2019-11-10 06:35:57,-37.84,145.39,63.0,63,90,12.75,overcast clouds,0.0,0.0
312,Beloha,MG,2019-11-10 06:35:57,-25.17,45.06,75.99,59,89,10.65,overcast clouds,0.0,0.0
313,Lompoc,US,2019-11-10 06:35:58,34.64,-120.46,57.0,93,90,12.37,overcast clouds,0.0,0.0
314,Hamilton,CA,2019-11-10 06:35:58,43.26,-79.87,39.99,74,75,11.41,broken clouds,0.0,0.0
315,Esso,RU,2019-11-10 06:35:58,55.93,158.7,12.24,97,98,5.1,overcast clouds,0.0,0.0
316,Chapais,CA,2019-11-10 06:35:58,49.78,-74.86,21.2,92,90,4.7,light snow,0.0,0.0
317,Anniston,US,2019-11-10 06:35:58,33.66,-85.83,42.01,100,1,1.81,clear sky,0.0,0.0
318,Linares,CL,2019-11-10 06:35:58,-35.85,-71.6,54.03,75,67,1.34,broken clouds,0.0,0.0
319,College,US,2019-11-10 06:35:59,64.86,-147.8,19.4,83,1,2.57,clear sky,0.0,0.0
320,Lazne Belohrad,CZ,2019-11-10 06:35:59,50.43,15.58,33.01,100,75,2.24,mist,0.0,0.0
321,Pochutla,MX,2019-11-10 06:35:59,15.74,-96.47,75.99,89,39,5.93,scattered clouds,0.0,0.0
322,Ust-Ishim,RU,2019-11-10 06:35:59,57.69,71.17,18.23,70,24,3.44,few clouds,0.0,0.0
323,Dangtu,CN,2019-11-10 06:35:59,31.57,118.49,73.4,25,0,13.42,clear sky,0.0,0.0
324,Pisco,PE,2019-11-10 06:36:00,-13.71,-76.2,62.6,82,28,6.93,scattered clouds,0.0,0.0
325,Sao Jose Da Coroa Grande,BR,2019-11-10 06:36:00,-8.9,-35.15,79.38,78,59,15.5,light rain,0.31,0.0
326,Belaya Gora,RU,2019-11-10 06:36:00,68.54,146.19,-7.14,97,92,4.97,overcast clouds,0.0,0.0
327,Izhma,RU,2019-11-10 06:36:01,65.01,53.91,11.75,87,85,7.07,overcast clouds,0.0,0.0
328,Baruun-Urt,MN,2019-11-10 06:36:01,46.68,113.28,41.0,43,62,9.57,broken clouds,0.0,0.0
329,Noumea,NC,2019-11-10 06:36:01,-22.28,166.46,80.6,51,0,11.41,clear sky,0.0,0.0
330,Los Llanos De Aridane,ES,2019-11-10 06:36:01,28.66,-17.92,68.0,72,75,16.11,broken clouds,0.0,0.0
331,Liwale,TZ,2019-11-10 06:36:01,-9.8,37.92,79.95,64,100,5.44,overcast clouds,0.0,0.0
332,Vanavara,RU,2019-11-10 06:36:02,60.35,102.28,-6.94,89,100,8.72,overcast clouds,0.0,0.0
333,Dutse,NG,2019-11-10 06:36:02,11.76,9.34,76.84,29,85,4.36,overcast clouds,0.0,0.0
334,Farafenni,GM,2019-11-10 06:36:02,13.57,-15.6,72.36,36,35,1.81,scattered clouds,0.0,0.0
335,Raudeberg,NO,2019-11-10 06:36:02,61.99,5.14,34.0,58,0,5.82,clear sky,0.0,0.0
336,Rio Grande,BR,2019-11-10 06:34:51,-32.03,-52.1,68.0,95,39,3.0,light rain,0.19,0.0
337,Kahului,US,2019-11-10 06:34:04,20.89,-156.47,78.8,74,40,5.82,scattered clouds,0.0,0.0
338,Lukovetskiy,RU,2019-11-10 06:36:03,64.29,41.92,26.6,92,90,4.47,light snow,0.0,0.0
339,Port Hedland,AU,2019-11-10 06:36:03,-20.31,118.58,107.6,9,64,14.99,broken clouds,0.0,0.0
340,Puerto Escondido,MX,2019-11-10 06:36:03,15.86,-97.07,70.93,69,0,5.19,clear sky,0.0,0.0
341,Indianola,US,2019-11-10 06:32:18,40.24,-100.42,45.0,45,1,4.7,clear sky,0.0,0.0
342,Erzin,TR,2019-11-10 06:36:04,36.95,36.2,68.0,59,40,3.24,scattered clouds,0.0,0.0
343,Barcelos,BR,2019-11-10 06:36:04,-0.97,-62.93,75.13,91,100,1.52,overcast clouds,0.0,0.0
344,Dicabisagan,PH,2019-11-10 06:36:04,17.08,122.42,71.98,97,100,5.55,very heavy rain,72.81,0.0
345,Samarai,PG,2019-11-10 06:36:05,-10.62,150.67,79.23,82,95,7.76,light rain,0.75,0.0
346,Marawi,PH,2019-11-10 06:36:05,8.0,124.29,86.0,70,29,7.0,scattered clouds,0.0,0.0
347,Sitka,US,2019-11-10 06:36:05,37.17,-99.65,43.0,54,0,1.01,clear sky,0.0,0.0
348,Haputale,LK,2019-11-10 06:36:05,6.77,80.96,82.4,94,75,3.36,broken clouds,0.0,0.0
349,Quatis,BR,2019-11-10 06:36:05,-22.41,-44.26,66.51,99,100,0.69,light rain,1.12,0.0
350,Trat,TH,2019-11-10 06:36:06,12.25,102.51,91.0,55,3,8.05,clear sky,0.0,0.0
351,Fortuna,US,2019-11-10 06:36:06,40.6,-124.16,51.01,93,90,3.31,overcast clouds,0.0,0.0
352,Sandakan,MY,2019-11-10 06:36:06,5.84,118.12,91.4,55,75,5.82,broken clouds,0.0,0.0
353,Champerico,MX,2019-11-10 06:36:06,16.38,-93.6,64.85,97,44,2.44,scattered clouds,0.0,0.0
354,Panguna,PG,2019-11-10 06:36:06,-6.32,155.48,75.76,92,91,2.39,moderate rain,5.75,0.0
355,Ampanihy,MG,2019-11-10 06:36:07,-24.69,44.75,73.15,68,48,10.85,scattered clouds,0.0,0.0
356,Yerbogachen,RU,2019-11-10 06:36:07,61.28,108.01,-5.82,92,100,10.8,light snow,0.0,0.13
357,Batagay-Alyta,RU,2019-11-10 06:36:07,67.8,130.41,-16.12,79,29,4.03,scattered clouds,0.0,0.0
358,Port Hardy,CA,2019-11-10 06:36:07,50.7,-127.42,48.2,100,90,2.24,drizzle,0.0,0.0
359,The Valley,AI,2019-11-10 06:36:07,18.22,-63.06,81.0,83,40,13.87,light intensity shower rain,0.0,0.0
360,Oktyabrskoye,RU,2019-11-10 06:36:08,56.73,85.44,7.0,84,44,2.24,scattered clouds,0.0,0.0
361,Khani,GE,2019-11-10 06:36:08,41.96,42.96,66.2,37,0,18.34,clear sky,0.0,0.0
362,Balkanabat,TM,2019-11-10 06:36:08,39.51,54.36,61.79,17,0,16.11,clear sky,0.0,0.0
363,Ilulissat,GL,2019-11-10 06:36:08,69.22,-51.1,37.4,32,80,20.8,broken clouds,0.0,0.0
364,Synya,RU,2019-11-10 06:36:09,65.37,58.04,1.17,95,48,4.68,scattered clouds,0.0,0.0
365,Taoudenni,ML,2019-11-10 06:36:09,22.68,-3.98,64.99,29,100,9.82,overcast clouds,0.0,0.0
366,Manacapuru,BR,2019-11-10 06:36:09,-3.3,-60.62,75.2,94,75,2.24,broken clouds,0.0,0.0
367,Zakamensk,RU,2019-11-10 06:36:09,50.38,103.29,23.85,46,64,4.63,broken clouds,0.0,0.0
368,Vila Real,PT,2019-11-10 06:36:09,41.3,-7.75,50.0,87,98,6.71,overcast clouds,0.0,0.0
369,Texarkana,US,2019-11-10 06:36:09,33.44,-94.04,46.4,75,1,5.82,clear sky,0.0,0.0
370,Masumbwe,TZ,2019-11-10 06:36:10,-3.65,32.16,75.61,62,38,7.85,scattered clouds,0.0,0.0
371,Sinnamary,GF,2019-11-10 06:36:10,5.38,-52.96,81.48,82,22,11.52,few clouds,0.0,0.0
372,Havelock,US,2019-11-10 06:36:10,34.88,-76.9,44.6,86,1,3.11,clear sky,0.0,0.0
373,Petropavlovsk-Kamchatskiy,RU,2019-11-10 06:36:10,53.05,158.65,35.6,74,40,4.47,scattered clouds,0.0,0.0
374,El Guantillo,HN,2019-11-10 06:36:10,14.6,-87.3,64.4,82,75,4.7,broken clouds,0.0,0.0
375,Zhigansk,RU,2019-11-10 06:36:11,66.77,123.37,4.62,93,100,11.83,light snow,0.0,0.25
376,Totskoye,RU,2019-11-10 06:36:11,52.53,52.75,33.17,71,80,8.03,broken clouds,0.0,0.0
377,Harper,US,2019-11-10 06:36:11,30.3,-99.24,55.4,87,1,13.56,clear sky,0.0,0.0
378,Owase,JP,2019-11-10 06:36:11,34.07,136.2,57.31,59,2,5.86,clear sky,0.0,0.0
379,Xunchang,CN,2019-11-10 06:36:12,28.45,104.71,61.34,77,100,3.51,overcast clouds,0.0,0.0
380,Black River,JM,2019-11-10 06:36:12,18.03,-77.85,80.6,78,20,1.12,few clouds,0.0,0.0
381,Miyako,JP,2019-11-10 06:36:12,33.63,130.94,66.99,63,75,4.7,broken clouds,0.0,0.0
382,Kupang,ID,2019-11-10 06:36:12,-10.16,123.6,87.8,62,20,13.87,few clouds,0.0,0.0
383,Kieta,PG,2019-11-10 06:36:12,-6.22,155.63,83.14,69,61,4.83,light rain,1.31,0.0
384,Neuenrade,DE,2019-11-10 06:36:12,51.28,7.78,36.0,93,20,6.93,few clouds,0.0,0.0
385,Luganville,VU,2019-11-10 06:36:13,-15.51,167.18,82.4,74,75,3.36,broken clouds,0.0,0.0
386,Launceston,AU,2019-11-10 06:33:43,-41.43,147.14,66.0,45,90,5.82,overcast clouds,0.0,0.0
387,Sawakin,SD,2019-11-10 06:36:13,19.1,37.33,85.91,66,4,5.06,clear sky,0.0,0.0
388,Bathsheba,BB,2019-11-10 06:36:13,13.22,-59.52,73.4,88,75,5.82,light rain,0.0,0.0
389,Tevaitoa,PF,2019-11-10 06:36:13,-16.78,-151.5,78.21,80,100,15.5,moderate rain,3.94,0.0
390,Batalha,BR,2019-11-10 06:36:14,-9.67,-37.13,67.89,96,21,4.0,few clouds,0.0,0.0
391,Broome,GB,2019-11-10 06:36:14,52.47,1.45,41.0,93,25,1.12,scattered clouds,0.0,0.0
392,Tsogni,GA,2019-11-10 06:36:14,-2.79,10.1,81.3,84,100,9.51,overcast clouds,0.0,0.0
393,Shimanovsk,RU,2019-11-10 06:36:14,52.0,127.67,21.79,87,100,8.46,overcast clouds,0.0,0.0
394,Zlobin,HR,2019-11-10 06:36:14,45.29,14.65,55.0,66,40,10.29,scattered clouds,0.0,0.0
395,Nhamunda,BR,2019-11-10 06:36:15,-2.19,-56.71,74.1,93,100,1.05,overcast clouds,0.0,0.0
396,Umm Kaddadah,SD,2019-11-10 06:36:15,13.6,26.69,75.97,18,73,16.46,broken clouds,0.0,0.0
397,Barabinsk,RU,2019-11-10 06:36:15,55.35,78.35,16.75,47,33,5.82,scattered clouds,0.0,0.0
398,Karia,NG,2019-11-10 06:36:15,11.73,11.16,77.85,26,98,7.78,overcast clouds,0.0,0.0
399,Temuco,CL,2019-11-10 06:36:16,-38.74,-72.59,55.0,100,100,3.36,overcast clouds,0.0,0.0
400,Bubaque,GW,2019-11-10 06:36:16,11.28,-15.83,81.97,56,19,8.59,few clouds,0.0,0.0
401,Nadym,RU,2019-11-10 06:36:16,65.53,72.51,-7.48,98,0,3.4,clear sky,0.0,0.0
402,Placido De Castro,BR,2019-11-10 06:36:16,-10.34,-67.19,74.61,83,96,2.24,overcast clouds,0.0,0.0
403,Nsanje,MZ,2019-11-10 06:36:16,-16.92,35.26,85.75,56,38,7.27,scattered clouds,0.0,0.0
404,Evensk,RU,2019-11-10 06:36:17,61.92,159.24,21.83,93,100,11.41,light snow,0.0,0.63
405,Taubate,BR,2019-11-10 06:36:17,-23.03,-45.56,69.8,88,20,1.12,few clouds,0.0,0.0
406,Khudumelapye,BW,2019-11-10 06:36:17,-23.91,24.95,72.99,63,74,14.38,broken clouds,0.0,0.0
407,Esperance,AU,2019-11-10 06:36:17,-33.86,121.89,80.6,39,34,23.04,scattered clouds,0.0,0.0
408,Spartanburg,US,2019-11-10 06:33:07,34.95,-81.93,36.0,57,1,3.24,clear sky,0.0,0.0
409,Omboue,GA,2019-11-10 06:36:18,-1.57,9.26,76.35,95,100,2.73,overcast clouds,0.0,0.0
410,Henties Bay,NA,2019-11-10 06:36:18,-22.12,14.28,57.0,95,0,3.0,clear sky,0.0,0.0
411,Imbituba,BR,2019-11-10 06:36:18,-28.24,-48.67,71.6,100,75,5.82,broken clouds,0.0,0.0
412,Kuandian,CN,2019-11-10 06:36:18,40.73,124.78,50.92,66,100,11.41,overcast clouds,0.0,0.0
413,Bahia Honda,CU,2019-11-10 06:36:19,22.9,-83.16,73.96,89,29,9.13,light rain,1.94,0.0
414,Cortez,US,2019-11-10 06:36:19,37.35,-108.58,33.01,49,1,8.05,clear sky,0.0,0.0
415,Aswan,EG,2019-11-10 06:36:19,24.09,32.9,69.8,40,0,6.93,clear sky,0.0,0.0
416,Tiznit,MA,2019-11-10 06:36:19,29.7,-9.73,53.49,37,0,2.21,clear sky,0.0,0.0
417,Las Palmas,CO,2019-11-10 06:36:19,9.27,-75.33,74.3,89,100,4.9,overcast clouds,0.0,0.0
418,Goundam,ML,2019-11-10 06:36:20,16.42,-3.66,77.68,19,100,11.5,overcast clouds,0.0,0.0
419,Casper,US,2019-11-10 06:36:20,42.87,-106.31,39.0,74,1,4.43,clear sky,0.0,0.0
420,Brae,GB,2019-11-10 06:36:20,60.4,-1.35,37.4,57,37,1.12,scattered clouds,0.0,0.0
421,Bambous Virieux,MU,2019-11-10 06:36:20,-20.34,57.76,80.6,65,75,10.29,broken clouds,0.0,0.0
422,Leningradskiy,RU,2019-11-10 06:36:20,69.38,178.42,17.91,58,7,3.76,clear sky,0.0,0.0
423,Katobu,ID,2019-11-10 06:36:20,-4.94,122.53,91.98,46,53,5.66,light rain,1.06,0.0
424,Tasiilaq,GL,2019-11-10 06:36:21,65.61,-37.64,37.4,69,100,36.91,light intensity shower rain,0.0,0.0
425,Paracuru,BR,2019-11-10 06:36:21,-3.41,-39.03,86.0,69,40,16.11,scattered clouds,0.0,0.0
426,Herrin,US,2019-11-10 06:36:21,37.8,-89.03,46.4,70,1,8.05,clear sky,0.0,0.0
427,Yatou,CM,2019-11-10 06:36:21,3.63,9.81,73.4,94,75,2.24,thunderstorm with light rain,0.0,0.0
428,Graham,US,2019-11-10 06:35:00,33.11,-98.59,57.2,93,1,8.57,clear sky,0.0,0.0
429,Ciudad Bolivar,VE,2019-11-10 06:36:22,8.12,-63.55,76.96,87,100,7.25,light rain,1.56,0.0
430,Severo-Kurilsk,RU,2019-11-10 06:36:22,50.68,156.12,29.37,84,93,19.6,light snow,0.0,0.25
431,Saint Anthony,US,2019-11-10 06:36:22,43.97,-111.68,42.8,53,1,3.36,clear sky,0.0,0.0
432,Suffolk,US,2019-11-10 06:36:04,36.73,-76.58,39.2,100,1,2.64,clear sky,0.0,0.0
433,Shiraz,IR,2019-11-10 06:36:23,29.61,52.54,57.2,35,0,4.7,clear sky,0.0,0.0
434,Bandarbeyla,SO,2019-11-10 06:36:23,9.49,50.81,79.68,72,1,13.04,clear sky,0.0,0.0
435,Morro Bay,US,2019-11-10 06:36:23,35.37,-120.85,57.0,100,75,4.38,mist,0.0,0.0
436,Poshekhonye,RU,2019-11-10 06:36:23,58.5,39.12,37.0,96,100,8.99,light rain,0.19,0.0
437,Puerto El Triunfo,SV,2019-11-10 06:36:23,13.27,-88.55,84.2,51,100,8.05,overcast clouds,0.0,0.0
438,Labuhan,ID,2019-11-10 06:36:24,-2.54,115.51,93.81,42,98,1.16,overcast clouds,0.0,0.0
439,Thinadhoo,MV,2019-11-10 06:36:24,0.53,72.93,82.49,75,84,9.78,light rain,0.19,0.0
440,Jalapa,GT,2019-11-10 06:36:24,14.63,-89.98,60.8,77,20,16.11,few clouds,0.0,0.0
441,Mawlaik,MM,2019-11-10 06:36:24,23.63,94.42,72.54,86,97,3.6,overcast clouds,0.0,0.0
442,Coihaique,CL,2019-11-10 06:36:24,-45.58,-72.07,50.0,93,75,4.7,broken clouds,0.0,0.0
443,Loding,DE,2019-11-10 06:36:25,48.05,12.68,34.0,100,75,1.12,fog,0.0,0.0
444,Sola,TZ,2019-11-10 06:36:25,-3.17,33.8,75.25,57,12,8.21,few clouds,0.0,0.0
445,Carhuaz,PE,2019-11-10 06:36:25,-9.28,-77.65,43.5,85,55,2.51,light rain,0.94,0.0
446,Berlevag,NO,2019-11-10 06:36:25,70.86,29.09,30.6,71,93,8.77,overcast clouds,0.0,0.0
447,Conceicao Da Barra,BR,2019-11-10 06:36:25,-18.59,-39.73,77.52,78,25,15.86,scattered clouds,0.0,0.0
448,Miramar,CR,2019-11-10 06:36:25,10.09,-84.73,73.99,73,100,6.93,overcast clouds,0.0,0.0
449,Alexandria,RO,2019-11-10 06:35:46,43.97,25.33,57.0,76,40,1.01,scattered clouds,0.0,0.0
450,Lock Haven,US,2019-11-10 06:36:26,41.14,-77.45,33.8,64,90,3.36,overcast clouds,0.0,0.0
451,Cayenne,GF,2019-11-10 06:36:26,4.94,-52.33,75.2,94,20,3.49,few clouds,0.0,0.0
452,General Roca,AR,2019-11-10 06:36:26,-39.03,-67.58,59.0,38,96,11.41,overcast clouds,0.0,0.0
453,Bonthe,SL,2019-11-10 06:36:27,7.53,-12.5,77.65,84,38,2.53,scattered clouds,0.0,0.0
454,Waingapu,ID,2019-11-10 06:36:27,-9.65,120.26,83.82,67,0,7.58,clear sky,0.0,0.0
455,Faanui,PF,2019-11-10 06:36:27,-16.48,-151.75,77.7,83,100,11.72,light rain,2.0,0.0
456,Karpathos,GR,2019-11-10 06:36:27,35.51,27.21,71.6,83,40,6.93,scattered clouds,0.0,0.0
457,Klichka,RU,2019-11-10 06:36:28,50.44,118.0,37.26,55,99,17.16,overcast clouds,0.0,0.0
458,Dukat,AL,2019-11-10 06:36:28,40.25,19.57,60.01,96,37,13.06,light rain,1.94,0.0
459,Mapimi,MX,2019-11-10 06:36:28,25.82,-103.85,64.99,65,99,2.77,overcast clouds,0.0,0.0
460,Bogorodskoye,RU,2019-11-10 06:36:28,52.37,140.44,18.03,72,0,4.56,clear sky,0.0,0.0
461,Ancud,CL,2019-11-10 06:36:28,-41.87,-73.83,48.2,100,74,1.12,broken clouds,0.0,0.0
462,Broken Hill,AU,2019-11-10 06:36:29,-31.97,141.45,77.0,15,0,10.29,clear sky,0.0,0.0
463,Gravdal,NO,2019-11-10 06:36:29,59.79,5.78,32.0,85,0,5.82,clear sky,0.0,0.0
464,Itoman,JP,2019-11-10 06:36:29,26.12,127.67,78.8,44,75,4.7,broken clouds,0.0,0.0
465,Yulara,AU,2019-11-10 06:36:29,-25.24,130.99,91.4,6,0,4.7,clear sky,0.0,0.0
466,Kharan,PK,2019-11-10 06:36:29,28.58,65.42,65.08,14,35,7.18,scattered clouds,0.0,0.0
467,Mountain Home,US,2019-11-10 06:36:30,43.13,-115.69,41.0,80,1,4.88,clear sky,0.0,0.0
468,Juchitlan,MX,2019-11-10 06:36:30,20.08,-104.1,66.87,65,49,3.02,scattered clouds,0.0,0.0
469,Batemans Bay,AU,2019-11-10 06:36:30,-35.71,150.18,68.0,63,100,3.0,overcast clouds,0.0,0.0
470,Bone,DE,2019-11-10 06:36:30,51.97,12.14,34.0,100,13,5.82,few clouds,0.0,0.0
471,Metkovic,HR,2019-11-10 06:36:30,43.05,17.65,48.2,100,75,2.24,broken clouds,0.0,0.0
472,Kununurra,AU,2019-11-10 06:36:31,-15.77,128.74,105.8,20,77,6.93,broken clouds,0.0,0.0
473,Tucurui,BR,2019-11-10 06:36:31,-3.77,-49.67,75.4,88,8,3.51,clear sky,0.0,0.0
474,Keetmanshoop,NA,2019-11-10 06:36:31,-26.57,18.15,71.6,15,0,2.24,clear sky,0.0,0.0
475,Tallahassee,US,2019-11-10 06:33:36,30.44,-84.28,46.0,93,1,5.82,clear sky,0.0,0.0
476,Pangnirtung,CA,2019-11-10 06:36:32,66.15,-65.72,18.32,65,100,8.23,overcast clouds,0.0,0.0
477,Kumluca,TR,2019-11-10 06:36:32,36.37,30.29,66.36,38,9,3.4,clear sky,0.0,0.0
478,Cabo Rojo,PR,2019-11-10 06:36:32,18.09,-67.15,80.01,93,19,7.09,few clouds,0.0,0.0
479,Isabela,PH,2019-11-10 06:36:32,10.2,122.99,79.68,73,44,8.75,light rain,1.06,0.0
480,Khandbari,NP,2019-11-10 06:36:32,27.38,87.21,59.9,54,7,5.44,clear sky,0.0,0.0
481,Borovskoy,KZ,2019-11-10 06:36:33,53.8,64.15,24.04,52,6,5.55,clear sky,0.0,0.0
482,Tafresh,IR,2019-11-10 06:36:33,34.69,50.01,41.0,29,0,2.24,clear sky,0.0,0.0
483,Shakawe,BW,2019-11-10 06:36:33,-18.36,21.84,73.47,61,100,4.81,light rain,0.38,0.0
484,San Jose,HN,2019-11-10 06:36:33,14.25,-87.96,61.57,87,75,7.56,broken clouds,0.0,0.0
485,Haverfordwest,GB,2019-11-10 06:36:33,51.8,-4.97,41.0,86,96,19.46,light rain,0.13,0.0
486,Ketchikan,US,2019-11-10 06:33:59,55.34,-131.65,50.0,100,90,21.92,moderate rain,0.0,0.0
487,Resistencia,AR,2019-11-10 06:36:34,-27.45,-58.99,71.6,100,90,9.17,mist,0.0,0.0
488,Srednekolymsk,RU,2019-11-10 06:36:34,67.46,153.71,4.1,95,100,12.19,overcast clouds,0.0,0.0
489,Illapel,CL,2019-11-10 06:36:34,-31.63,-71.17,56.93,52,0,2.26,clear sky,0.0,0.0
490,Vredendal,ZA,2019-11-10 06:36:34,-31.68,18.49,63.37,66,90,2.59,overcast clouds,0.0,0.0
491,Nagykanizsa,HU,2019-11-10 06:36:35,46.45,16.99,42.8,93,100,5.82,light rain,0.0,0.0
492,Saint Pete Beach,US,2019-11-10 06:36:35,27.73,-82.74,62.6,82,1,3.36,clear sky,0.0,0.0
493,Kendari,ID,2019-11-10 06:36:35,-3.99,122.52,86.59,57,58,7.4,broken clouds,0.0,0.0
494,Sabla,NG,2019-11-10 06:36:35,12.75,4.71,77.0,30,11,5.75,few clouds,0.0,0.0
495,Carutapera,BR,2019-11-10 06:36:36,-1.2,-46.02,81.03,81,74,13.71,broken clouds,0.0,0.0
496,Mount Gambier,AU,2019-11-10 06:36:36,-37.83,140.78,59.0,72,90,13.87,overcast clouds,0.0,0.0
497,Le Port,FR,2019-11-10 06:36:36,42.87,1.37,42.01,77,100,5.99,light rain,0.75,0.0
498,Araceli,PH,2019-11-10 06:36:36,10.55,119.99,83.53,70,52,9.13,broken clouds,0.0,0.0
499,Pandan,PH,2019-11-10 06:36:36,11.72,122.09,82.56,70,26,6.8,light rain,1.25,0.0
500,Manama,AE,2019-11-10 06:36:37,25.33,56.02,78.8,54,20,11.41,few clouds,0.0,0.0
501,Kathmandu,NP,2019-11-10 06:32:24,27.71,85.32,69.8,64,20,2.24,few clouds,0.0,0.0
502,Alice Springs,AU,2019-11-10 06:36:37,-23.7,133.88,87.8,6,0,6.93,clear sky,0.0,0.0
503,Fare,PF,2019-11-10 06:36:37,-16.7,-151.02,78.01,83,100,14.12,light rain,2.75,0.0
504,Okhotsk,RU,2019-11-10 06:36:37,59.36,143.24,9.81,74,67,15.66,broken clouds,0.0,0.0
505,Richards Bay,ZA,2019-11-10 06:36:38,-28.77,32.06,70.14,78,61,19.17,broken clouds,0.0,0.0
506,Inuvik,CA,2019-11-10 06:36:38,68.36,-133.71,10.4,46,5,2.24,clear sky,0.0,0.0
507,Dzilam Gonzalez,MX,2019-11-10 06:36:38,21.28,-88.93,79.0,87,19,7.0,light rain,0.62,0.0
508,Savelugu,GH,2019-11-10 06:36:38,9.63,-0.83,78.03,53,1,3.58,clear sky,0.0,0.0
509,Nizwa,OM,2019-11-10 06:36:38,22.93,57.53,72.57,42,33,3.15,scattered clouds,0.0,0.0
510,Wodonga,AU,2019-11-10 06:36:39,-36.12,146.89,70.0,43,40,11.41,scattered clouds,0.0,0.0
511,Poso,ID,2019-11-10 06:36:39,-1.4,120.75,74.39,71,100,3.44,light rain,0.13,0.0
512,Necochea,AR,2019-11-10 06:36:39,-38.55,-58.74,39.99,88,0,1.01,clear sky,0.0,0.0
513,Sauce,UY,2019-11-10 06:36:39,-34.65,-56.06,64.0,87,20,8.05,few clouds,0.0,0.0
514,Abalak,NE,2019-11-10 06:36:39,15.46,6.28,78.4,16,13,9.06,few clouds,0.0,0.0
515,Tambun,ID,2019-11-10 06:36:40,-6.26,107.07,96.01,52,40,12.75,scattered clouds,0.0,0.0
516,Sao Joao Da Barra,BR,2019-11-10 06:36:40,-21.64,-41.05,74.21,92,100,14.03,overcast clouds,0.0,0.0
517,Wagar,US,2019-11-10 06:36:40,31.44,-87.99,44.01,91,0,1.23,clear sky,0.0,0.0
518,Lasa,CY,2019-11-10 06:36:40,34.92,32.53,73.4,33,0,4.7,clear sky,0.0,0.0
519,Otaru,JP,2019-11-10 06:36:40,43.18,140.99,46.99,42,75,10.29,broken clouds,0.0,0.0
520,Vilcun,CL,2019-11-10 06:36:41,-38.65,-72.23,55.0,100,82,3.36,broken clouds,0.0,0.0
521,Nortelandia,BR,2019-11-10 06:36:41,-14.45,-56.8,72.27,94,71,5.03,light rain,1.31,0.0
522,Comodoro Rivadavia,AR,2019-11-10 06:36:41,-45.87,-67.48,46.4,70,70,5.82,broken clouds,0.0,0.0
523,Youkounkoun,GN,2019-11-10 06:36:41,12.53,-13.12,75.25,81,33,4.14,scattered clouds,0.0,0.0
524,Mezobereny,HU,2019-11-10 06:36:41,46.82,21.03,52.0,100,90,2.24,light rain,0.0,0.0
525,Severodvinsk,RU,2019-11-10 06:36:42,64.56,39.82,26.6,92,90,4.47,light snow,0.0,0.0
526,Krasnokamensk,RU,2019-11-10 06:36:42,50.1,118.04,38.46,49,86,20.15,overcast clouds,0.0,0.0
527,Windham,US,2019-11-10 06:36:42,42.8,-71.3,37.99,68,90,4.56,overcast clouds,0.0,0.0
